[
    {
        "name": "Aachen",
        "id": 1,
        "nametype": "Valid",
        "recclass": "L5",
        "mass": 21.0,
        "fall": "Fell",
        "year": "1880-01-01T00:00:00.000",
        "reclat": 50.775,
        "reclong": 6.08333,
        "geolocation": {
            "latitude": 50.775,
            "longitude": 6.08333
        },
        "subclasses": {
            "class1": [
                "Chondrite"
            ],
            "class2": [
                "Ordinary"
            ],
            "class3": [
                "L"
            ]
        }
    },
    {
        "name": "Aarhus",
        "id": 2,
        "nametype": "Valid",
        "recclass": "H6",
        "mass": 720.0,
        "fall": "Fell",
        "year": "1951-01-01T00:00:00.000",
        "reclat": 56.18333,
        "reclong": 10.23333,
        "geolocation": {
            "latitude": 56.18333,
            "longitude": 10.23333
        },
        "subclasses": {
            "class1": [
                "Chondrite"
            ],
            "class2": [
                "Ordinary"
            ],
            "class3": [
                "H"
            ]
        }
    },
    {
        "name": "Abee",
        "id": 6,
        "nametype": "Valid",
        "recclass": "EH4",
        "mass": 107000.0,
        "fall": "Fell",
        "year": "1952-01-01T00:00:00.000",
        "reclat": 54.21667,
        "reclong": -113.0,
        "geolocation": {
            "latitude": 54.21667,
            "longitude": -113.0
        },
        "subclasses": {
            "class1": [
                "Chondrite"
            ],
            "class2": [
                "Enstatiate"
            ],
            "class3": [
                "EH"
            ]
        }
    },
    {
        "name": "Acapulco",
        "id": 10,
        "nametype": "Valid",
        "recclass": "Acapulcoite",
        "mass": 1914.0,
        "fall": "Fell",
        "year": "1976-01-01T00:00:00.000",
        "reclat": 16.88333,
        "reclong": -99.9,
        "geolocation": {
            "latitude": 16.88333,
            "longitude": -99.9
        },
        "subclasses": {
            "class1": [
                "Achondrite"
            ],
            "class2": [
                "Primitive Achondrite"
            ],
            "class3": [
                "Acapulcoite"
            ]
        }
    },
    {
        "name": "Achiras",
        "id": 370,
        "nametype": "Valid",
        "recclass": "L6",
        "mass": 780.0,
        "fall": "Fell",
        "year": "1902-01-01T00:00:00.000",
        "reclat": -33.16667,
        "reclong": -64.95,
        "geolocation": {
            "latitude": -33.16667,
            "longitude": -64.95
        },
        "subclasses": {
            "class1": [
                "Chondrite"
            ],
            "class2": [
                "Ordinary"
            ],
            "class3": [
                "L"
            ]
        }
    },
    {
        "name": "Adhi Kot",
        "id": 379,
        "nametype": "Valid",
        "recclass": "EH4",
        "mass": 4239.0,
        "fall": "Fell",
        "year": "1919-01-01T00:00:00.000",
        "reclat": 32.1,
        "reclong": 71.8,
        "geolocation": {
            "latitude": 32.1,
            "longitude": 71.8
        },
        "subclasses": {
            "class1": [
                "Chondrite"
            ],
            "class2": [
                "Enstatiate"
            ],
            "class3": [
                "EH"
            ]
        }
    },
    {
        "name": "Adzhi-Bogdo (stone)",
        "id": 390,
        "nametype": "Valid",
        "recclass": "LL3-6",
        "mass": 910.0,
        "fall": "Fell",
        "year": "1949-01-01T00:00:00.000",
        "reclat": 44.83333,
        "reclong": 95.16667,
        "geolocation": {
            "latitude": 44.83333,
            "longitude": 95.16667
        },
        "subclasses": {
            "class1": [
                "Chondrite"
            ],
            "class2": [
                "Ordinary"
            ],
            "class3": [
                "LL"
            ]
        }
    },
    {
        "name": "Agen",
        "id": 392,
        "nametype": "Valid",
        "recclass": "H5",
        "mass": 30000.0,
        "fall": "Fell",
        "year": "1814-01-01T00:00:00.000",
        "reclat": 44.21667,
        "reclong": 0.61667,
        "geolocation": {
            "latitude": 44.21667,
            "longitude": 0.61667
        },
        "subclasses": {
            "class1": [
                "Chondrite"
            ],
            "class2": [
                "Ordinary"
            ],
            "class3": [
                "H"
            ]
        }
    },
    {
        "name": "Aguada",
        "id": 398,
        "nametype": "Valid",
        "recclass": "L6",
        "mass": 1620.0,
        "fall": "Fell",
        "year": "1930-01-01T00:00:00.000",
        "reclat": -31.6,
        "reclong": -65.23333,
        "geolocation": {
            "latitude": -31.6,
            "longitude": -65.23333
        },
        "subclasses": {
            "class1": [
                "Chondrite"
            ],
            "class2": [
                "Ordinary"
            ],
            "class3": [
                "L"
            ]
        }
    },
    {
        "name": "Aguila Blanca",
        "id": 417,
        "nametype": "Valid",
        "recclass": "L",
        "mass": 1440.0,
        "fall": "Fell",
        "year": "1920-01-01T00:00:00.000",
        "reclat": -30.86667,
        "reclong": -64.55,
        "geolocation": {
            "latitude": -30.86667,
            "longitude": -64.55
        },
        "subclasses": {
            "class1": [
                "Chondrite"
            ],
            "class2": [
                "Ordinary"
            ],
            "class3": [
                "L"
            ]
        }
    },
    {
        "name": "Aioun el Atrouss",
        "id": 423,
        "nametype": "Valid",
        "recclass": "Diogenite-pm",
        "mass": 1000.0,
        "fall": "Fell",
        "year": "1974-01-01T00:00:00.000",
        "reclat": 16.39806,
        "reclong": -9.57028,
        "geolocation": {
            "latitude": 16.39806,
            "longitude": -9.57028
        },
        "subclasses": {
            "class1": [
                "Achondrite"
            ],
            "class2": [
                "HED"
            ],
            "class3": [
                "Diogenite"
            ]
        }
    },
    {
        "name": "A\u00efr",
        "id": 424,
        "nametype": "Valid",
        "recclass": "L6",
        "mass": 24000.0,
        "fall": "Fell",
        "year": "1925-01-01T00:00:00.000",
        "reclat": 19.08333,
        "reclong": 8.38333,
        "geolocation": {
            "latitude": 19.08333,
            "longitude": 8.38333
        },
        "subclasses": {
            "class1": [
                "Chondrite"
            ],
            "class2": [
                "Ordinary"
            ],
            "class3": [
                "L"
            ]
        }
    },
    {
        "name": "Aire-sur-la-Lys",
        "id": 425,
        "nametype": "Valid",
        "recclass": "Unknown",
        "fall": "Fell",
        "year": "1769-01-01T00:00:00.000",
        "reclat": 50.66667,
        "reclong": 2.33333,
        "geolocation": {
            "latitude": 50.66667,
            "longitude": 2.33333
        },
        "subclasses": {
            "class1": [
                "Unknown"
            ],
            "class2": null,
            "class3": null
        }
    },
    {
        "name": "Akaba",
        "id": 426,
        "nametype": "Valid",
        "recclass": "L6",
        "mass": 779.0,
        "fall": "Fell",
        "year": "1949-01-01T00:00:00.000",
        "reclat": 29.51667,
        "reclong": 35.05,
        "geolocation": {
            "latitude": 29.51667,
            "longitude": 35.05
        },
        "subclasses": {
            "class1": [
                "Chondrite"
            ],
            "class2": [
                "Ordinary"
            ],
            "class3": [
                "L"
            ]
        }
    },
    {
        "name": "Akbarpur",
        "id": 427,
        "nametype": "Valid",
        "recclass": "H4",
        "mass": 1800.0,
        "fall": "Fell",
        "year": "1838-01-01T00:00:00.000",
        "reclat": 29.71667,
        "reclong": 77.95,
        "geolocation": {
            "latitude": 29.71667,
            "longitude": 77.95
        },
        "subclasses": {
            "class1": [
                "Chondrite"
            ],
            "class2": [
                "Ordinary"
            ],
            "class3": [
                "H"
            ]
        }
    },
    {
        "name": "Akwanga",
        "id": 432,
        "nametype": "Valid",
        "recclass": "H",
        "mass": 3000.0,
        "fall": "Fell",
        "year": "1959-01-01T00:00:00.000",
        "reclat": 8.91667,
        "reclong": 8.43333,
        "geolocation": {
            "latitude": 8.91667,
            "longitude": 8.43333
        },
        "subclasses": {
            "class1": [
                "Chondrite"
            ],
            "class2": [
                "Ordinary"
            ],
            "class3": [
                "H"
            ]
        }
    },
    {
        "name": "Akyumak",
        "id": 433,
        "nametype": "Valid",
        "recclass": "Iron, IVA",
        "mass": 50000.0,
        "fall": "Fell",
        "year": "1981-01-01T00:00:00.000",
        "reclat": 39.91667,
        "reclong": 42.81667,
        "geolocation": {
            "latitude": 39.91667,
            "longitude": 42.81667
        },
        "subclasses": {
            "class1": [
                "Iron"
            ],
            "class2": [
                "Iron IVA"
            ],
            "class3": null
        }
    },
    {
        "name": "Al Rais",
        "id": 446,
        "nametype": "Valid",
        "recclass": "CR2-an",
        "mass": 160.0,
        "fall": "Fell",
        "year": "1957-01-01T00:00:00.000",
        "reclat": 24.41667,
        "reclong": 39.51667,
        "geolocation": {
            "latitude": 24.41667,
            "longitude": 39.51667
        },
        "subclasses": {
            "class1": [
                "Chondrite"
            ],
            "class2": [
                "Carbonacous"
            ],
            "class3": [
                "CR"
            ]
        }
    },
    {
        "name": "Al Zarnkh",
        "id": 447,
        "nametype": "Valid",
        "recclass": "LL5",
        "mass": 700.0,
        "fall": "Fell",
        "year": "2001-01-01T00:00:00.000",
        "reclat": 13.66033,
        "reclong": 28.96,
        "geolocation": {
            "latitude": 13.66033,
            "longitude": 28.96
        },
        "subclasses": {
            "class1": [
                "Chondrite"
            ],
            "class2": [
                "Ordinary"
            ],
            "class3": [
                "LL"
            ]
        }
    },
    {
        "name": "Alais",
        "id": 448,
        "nametype": "Valid",
        "recclass": "CI1",
        "mass": 6000.0,
        "fall": "Fell",
        "year": "1806-01-01T00:00:00.000",
        "reclat": 44.11667,
        "reclong": 4.08333,
        "geolocation": {
            "latitude": 44.11667,
            "longitude": 4.08333
        },
        "subclasses": {
            "class1": [
                "Chondrite"
            ],
            "class2": [
                "Carbonacous"
            ],
            "class3": [
                "CI"
            ]
        }
    },
    {
        "name": "Albareto",
        "id": 453,
        "nametype": "Valid",
        "recclass": "L/LL4",
        "mass": 2000.0,
        "fall": "Fell",
        "year": "1766-01-01T00:00:00.000",
        "reclat": 44.65,
        "reclong": 11.01667,
        "geolocation": {
            "latitude": 44.65,
            "longitude": 11.01667
        },
        "subclasses": {
            "class1": [
                "Chondrite"
            ],
            "class2": [
                "Ordinary"
            ],
            "class3": [
                "L",
                "LL"
            ]
        }
    },
    {
        "name": "Alberta",
        "id": 454,
        "nametype": "Valid",
        "recclass": "L",
        "mass": 625.0,
        "fall": "Fell",
        "year": "1949-01-01T00:00:00.000",
        "reclat": 2.0,
        "reclong": 22.66667,
        "geolocation": {
            "latitude": 2.0,
            "longitude": 22.66667
        },
        "subclasses": {
            "class1": [
                "Chondrite"
            ],
            "class2": [
                "Ordinary"
            ],
            "class3": [
                "L"
            ]
        }
    },
    {
        "name": "Alby sur Ch\u00e9ran",
        "id": 458,
        "nametype": "Valid",
        "recclass": "Eucrite-mmict",
        "mass": 252.0,
        "fall": "Fell",
        "year": "2002-01-01T00:00:00.000",
        "reclat": 45.82133,
        "reclong": 6.01533,
        "geolocation": {
            "latitude": 45.82133,
            "longitude": 6.01533
        },
        "subclasses": {
            "class1": [
                "Achondrite"
            ],
            "class2": [
                "HED"
            ],
            "class3": [
                "Eucrite"
            ]
        }
    },
    {
        "name": "Aldsworth",
        "id": 461,
        "nametype": "Valid",
        "recclass": "LL5",
        "mass": 700.0,
        "fall": "Fell",
        "year": "1835-01-01T00:00:00.000",
        "reclat": 51.78333,
        "reclong": -1.78333,
        "geolocation": {
            "latitude": 51.78333,
            "longitude": -1.78333
        },
        "subclasses": {
            "class1": [
                "Chondrite"
            ],
            "class2": [
                "Ordinary"
            ],
            "class3": [
                "LL"
            ]
        }
    },
    {
        "name": "Aleppo",
        "id": 462,
        "nametype": "Valid",
        "recclass": "L6",
        "mass": 3200.0,
        "fall": "Fell",
        "year": "1873-01-01T00:00:00.000",
        "reclat": 36.23333,
        "reclong": 37.13333,
        "geolocation": {
            "latitude": 36.23333,
            "longitude": 37.13333
        },
        "subclasses": {
            "class1": [
                "Chondrite"
            ],
            "class2": [
                "Ordinary"
            ],
            "class3": [
                "L"
            ]
        }
    },
    {
        "name": "Alessandria",
        "id": 463,
        "nametype": "Valid",
        "recclass": "H5",
        "mass": 908.0,
        "fall": "Fell",
        "year": "1860-01-01T00:00:00.000",
        "reclat": 44.88333,
        "reclong": 8.75,
        "geolocation": {
            "latitude": 44.88333,
            "longitude": 8.75
        },
        "subclasses": {
            "class1": [
                "Chondrite"
            ],
            "class2": [
                "Ordinary"
            ],
            "class3": [
                "H"
            ]
        }
    },
    {
        "name": "Alexandrovsky",
        "id": 465,
        "nametype": "Valid",
        "recclass": "H4",
        "mass": 9251.0,
        "fall": "Fell",
        "year": "1900-01-01T00:00:00.000",
        "reclat": 50.95,
        "reclong": 31.81667,
        "geolocation": {
            "latitude": 50.95,
            "longitude": 31.81667
        },
        "subclasses": {
            "class1": [
                "Chondrite"
            ],
            "class2": [
                "Ordinary"
            ],
            "class3": [
                "H"
            ]
        }
    },
    {
        "name": "Alfianello",
        "id": 466,
        "nametype": "Valid",
        "recclass": "L6",
        "mass": 228000.0,
        "fall": "Fell",
        "year": "1883-01-01T00:00:00.000",
        "reclat": 45.26667,
        "reclong": 10.15,
        "geolocation": {
            "latitude": 45.26667,
            "longitude": 10.15
        },
        "subclasses": {
            "class1": [
                "Chondrite"
            ],
            "class2": [
                "Ordinary"
            ],
            "class3": [
                "L"
            ]
        }
    },
    {
        "name": "Allegan",
        "id": 2276,
        "nametype": "Valid",
        "recclass": "H5",
        "mass": 32000.0,
        "fall": "Fell",
        "year": "1899-01-01T00:00:00.000",
        "reclat": 42.53333,
        "reclong": -85.88333,
        "geolocation": {
            "latitude": 42.53333,
            "longitude": -85.88333
        },
        ":@computed_region_cbhk_fwbd": "50",
        ":@computed_region_nnqa_25f4": "429",
        "subclasses": {
            "class1": [
                "Chondrite"
            ],
            "class2": [
                "Ordinary"
            ],
            "class3": [
                "H"
            ]
        }
    },
    {
        "name": "Allende",
        "id": 2278,
        "nametype": "Valid",
        "recclass": "CV3",
        "mass": 2000000.0,
        "fall": "Fell",
        "year": "1969-01-01T00:00:00.000",
        "reclat": 26.96667,
        "reclong": -105.31667,
        "geolocation": {
            "latitude": 26.96667,
            "longitude": -105.31667
        },
        "subclasses": {
            "class1": [
                "Chondrite"
            ],
            "class2": [
                "Carbonacous"
            ],
            "class3": [
                "CV"
            ]
        }
    },
    {
        "name": "Almahata Sitta",
        "id": 48915,
        "nametype": "Valid",
        "recclass": "Ureilite-an",
        "mass": 3950.0,
        "fall": "Fell",
        "year": "2008-01-01T00:00:00.000",
        "reclat": 20.74575,
        "reclong": 32.41275,
        "geolocation": {
            "latitude": 20.74575,
            "longitude": 32.41275
        },
        "subclasses": {
            "class1": [
                "Achondrite"
            ],
            "class2": [
                "Ureilite"
            ],
            "class3": [
                "Anomalous"
            ]
        }
    },
    {
        "name": "Alta'ameem",
        "id": 2284,
        "nametype": "Valid",
        "recclass": "LL5",
        "mass": 6000.0,
        "fall": "Fell",
        "year": "1977-01-01T00:00:00.000",
        "reclat": 35.27333,
        "reclong": 44.21556,
        "geolocation": {
            "latitude": 35.27333,
            "longitude": 44.21556
        },
        "subclasses": {
            "class1": [
                "Chondrite"
            ],
            "class2": [
                "Ordinary"
            ],
            "class3": [
                "LL"
            ]
        }
    },
    {
        "name": "Ambapur Nagla",
        "id": 2290,
        "nametype": "Valid",
        "recclass": "H5",
        "mass": 6400.0,
        "fall": "Fell",
        "year": "1895-01-01T00:00:00.000",
        "reclat": 27.66667,
        "reclong": 78.25,
        "geolocation": {
            "latitude": 27.66667,
            "longitude": 78.25
        },
        "subclasses": {
            "class1": [
                "Chondrite"
            ],
            "class2": [
                "Ordinary"
            ],
            "class3": [
                "H"
            ]
        }
    },
    {
        "name": "Andhara",
        "id": 2294,
        "nametype": "Valid",
        "recclass": "Stone-uncl",
        "mass": 2700.0,
        "fall": "Fell",
        "year": "1880-01-01T00:00:00.000",
        "reclat": 26.58333,
        "reclong": 85.56667,
        "geolocation": {
            "latitude": 26.58333,
            "longitude": 85.56667
        },
        "subclasses": {
            "class1": [
                "Stony-iron"
            ],
            "class2": [
                "Other Stony-iron"
            ],
            "class3": null
        }
    },
    {
        "name": "Andover",
        "id": 2295,
        "nametype": "Valid",
        "recclass": "L6",
        "mass": 3200.0,
        "fall": "Fell",
        "year": "1898-01-01T00:00:00.000",
        "reclat": 44.61667,
        "reclong": -70.75,
        "geolocation": {
            "latitude": 44.61667,
            "longitude": -70.75
        },
        ":@computed_region_cbhk_fwbd": "49",
        ":@computed_region_nnqa_25f4": "1723",
        "subclasses": {
            "class1": [
                "Chondrite"
            ],
            "class2": [
                "Ordinary"
            ],
            "class3": [
                "L"
            ]
        }
    },
    {
        "name": "Andreevka",
        "id": 2296,
        "nametype": "Valid",
        "recclass": "L3",
        "mass": 600.0,
        "fall": "Fell",
        "year": "1969-01-01T00:00:00.000",
        "reclat": 48.7,
        "reclong": 37.5,
        "geolocation": {
            "latitude": 48.7,
            "longitude": 37.5
        },
        "subclasses": {
            "class1": [
                "Chondrite"
            ],
            "class2": [
                "Ordinary"
            ],
            "class3": [
                "L"
            ]
        }
    },
    {
        "name": "Andura",
        "id": 2298,
        "nametype": "Valid",
        "recclass": "H6",
        "mass": 17900.0,
        "fall": "Fell",
        "year": "1939-01-01T00:00:00.000",
        "reclat": 20.88333,
        "reclong": 76.86667,
        "geolocation": {
            "latitude": 20.88333,
            "longitude": 76.86667
        },
        "subclasses": {
            "class1": [
                "Chondrite"
            ],
            "class2": [
                "Ordinary"
            ],
            "class3": [
                "H"
            ]
        }
    },
    {
        "name": "Northwest Africa 5815",
        "id": 50693,
        "nametype": "Valid",
        "recclass": "L5",
        "mass": 256.8,
        "fall": "Found",
        "reclat": 0.0,
        "reclong": 0.0,
        "geolocation": {
            "latitude": 0.0,
            "longitude": 0.0
        },
        "subclasses": {
            "class1": [
                "Chondrite"
            ],
            "class2": [
                "Ordinary"
            ],
            "class3": [
                "L"
            ]
        }
    },
    {
        "name": "Angers",
        "id": 2301,
        "nametype": "Valid",
        "recclass": "L6",
        "fall": "Fell",
        "year": "1822-01-01T00:00:00.000",
        "reclat": 47.46667,
        "reclong": -0.55,
        "geolocation": {
            "latitude": 47.46667,
            "longitude": -0.55
        },
        "subclasses": {
            "class1": [
                "Chondrite"
            ],
            "class2": [
                "Ordinary"
            ],
            "class3": [
                "L"
            ]
        }
    },
    {
        "name": "Angra dos Reis (stone)",
        "id": 2302,
        "nametype": "Valid",
        "recclass": "Angrite",
        "mass": 1500.0,
        "fall": "Fell",
        "year": "1869-01-01T00:00:00.000",
        "reclat": -22.96667,
        "reclong": -44.31667,
        "geolocation": {
            "latitude": -22.96667,
            "longitude": -44.31667
        },
        "subclasses": {
            "class1": [
                "Achondrite"
            ],
            "class2": [
                "Angrite"
            ],
            "class3": null
        }
    },
    {
        "name": "Ankober",
        "id": 2304,
        "nametype": "Valid",
        "recclass": "H4",
        "mass": 6500.0,
        "fall": "Fell",
        "year": "1942-01-01T00:00:00.000",
        "reclat": 9.53333,
        "reclong": 39.71667,
        "geolocation": {
            "latitude": 9.53333,
            "longitude": 39.71667
        },
        "subclasses": {
            "class1": [
                "Chondrite"
            ],
            "class2": [
                "Ordinary"
            ],
            "class3": [
                "H"
            ]
        }
    },
    {
        "name": "Anlong",
        "id": 2305,
        "nametype": "Valid",
        "recclass": "H5",
        "mass": 2500.0,
        "fall": "Fell",
        "year": "1971-01-01T00:00:00.000",
        "reclat": 25.15,
        "reclong": 105.18333,
        "geolocation": {
            "latitude": 25.15,
            "longitude": 105.18333
        },
        "subclasses": {
            "class1": [
                "Chondrite"
            ],
            "class2": [
                "Ordinary"
            ],
            "class3": [
                "H"
            ]
        }
    },
    {
        "name": "Aomori",
        "id": 2313,
        "nametype": "Valid",
        "recclass": "L6",
        "mass": 320.0,
        "fall": "Fell",
        "year": "1984-01-01T00:00:00.000",
        "reclat": 40.81056,
        "reclong": 140.78556,
        "geolocation": {
            "latitude": 40.81056,
            "longitude": 140.78556
        },
        "subclasses": {
            "class1": [
                "Chondrite"
            ],
            "class2": [
                "Ordinary"
            ],
            "class3": [
                "L"
            ]
        }
    },
    {
        "name": "Appley Bridge",
        "id": 2318,
        "nametype": "Valid",
        "recclass": "LL6",
        "mass": 15000.0,
        "fall": "Fell",
        "year": "1914-01-01T00:00:00.000",
        "reclat": 53.58333,
        "reclong": -2.71667,
        "geolocation": {
            "latitude": 53.58333,
            "longitude": -2.71667
        },
        "subclasses": {
            "class1": [
                "Chondrite"
            ],
            "class2": [
                "Ordinary"
            ],
            "class3": [
                "LL"
            ]
        }
    },
    {
        "name": "Apt",
        "id": 2320,
        "nametype": "Valid",
        "recclass": "L6",
        "mass": 3200.0,
        "fall": "Fell",
        "year": "1803-01-01T00:00:00.000",
        "reclat": 43.86667,
        "reclong": 5.38333,
        "geolocation": {
            "latitude": 43.86667,
            "longitude": 5.38333
        },
        "subclasses": {
            "class1": [
                "Chondrite"
            ],
            "class2": [
                "Ordinary"
            ],
            "class3": [
                "L"
            ]
        }
    },
    {
        "name": "Arbol Solo",
        "id": 2325,
        "nametype": "Valid",
        "recclass": "H5",
        "mass": 810.0,
        "fall": "Fell",
        "year": "1954-01-01T00:00:00.000",
        "reclat": -33.0,
        "reclong": -66.0,
        "geolocation": {
            "latitude": -33.0,
            "longitude": -66.0
        },
        "subclasses": {
            "class1": [
                "Chondrite"
            ],
            "class2": [
                "Ordinary"
            ],
            "class3": [
                "H"
            ]
        }
    },
    {
        "name": "Archie",
        "id": 2329,
        "nametype": "Valid",
        "recclass": "H6",
        "mass": 5070.0,
        "fall": "Fell",
        "year": "1932-01-01T00:00:00.000",
        "reclat": 38.5,
        "reclong": -94.3,
        "geolocation": {
            "latitude": 38.5,
            "longitude": -94.3
        },
        ":@computed_region_cbhk_fwbd": "18",
        ":@computed_region_nnqa_25f4": "2697",
        "subclasses": {
            "class1": [
                "Chondrite"
            ],
            "class2": [
                "Ordinary"
            ],
            "class3": [
                "H"
            ]
        }
    },
    {
        "name": "Arroyo Aguiar",
        "id": 2340,
        "nametype": "Valid",
        "recclass": "H5",
        "mass": 7450.0,
        "fall": "Fell",
        "year": "1950-01-01T00:00:00.000",
        "reclat": -31.41667,
        "reclong": -60.66667,
        "geolocation": {
            "latitude": -31.41667,
            "longitude": -60.66667
        },
        "subclasses": {
            "class1": [
                "Chondrite"
            ],
            "class2": [
                "Ordinary"
            ],
            "class3": [
                "H"
            ]
        }
    },
    {
        "name": "Asco",
        "id": 2345,
        "nametype": "Valid",
        "recclass": "H6",
        "mass": 41.0,
        "fall": "Fell",
        "year": "1805-01-01T00:00:00.000",
        "reclat": 42.45,
        "reclong": 9.03333,
        "geolocation": {
            "latitude": 42.45,
            "longitude": 9.03333
        },
        "subclasses": {
            "class1": [
                "Chondrite"
            ],
            "class2": [
                "Ordinary"
            ],
            "class3": [
                "H"
            ]
        }
    },
    {
        "name": "Ash Creek",
        "id": 48954,
        "nametype": "Valid",
        "recclass": "L6",
        "mass": 9500.0,
        "fall": "Fell",
        "year": "2009-01-01T00:00:00.000",
        "reclat": 31.805,
        "reclong": -97.01,
        "geolocation": {
            "latitude": 31.805,
            "longitude": -97.01
        },
        ":@computed_region_cbhk_fwbd": "23",
        ":@computed_region_nnqa_25f4": "774",
        "subclasses": {
            "class1": [
                "Chondrite"
            ],
            "class2": [
                "Ordinary"
            ],
            "class3": [
                "L"
            ]
        }
    },
    {
        "name": "Ashdon",
        "id": 2346,
        "nametype": "Valid",
        "recclass": "L6",
        "mass": 1300.0,
        "fall": "Fell",
        "year": "1923-01-01T00:00:00.000",
        "reclat": 52.05,
        "reclong": 0.3,
        "geolocation": {
            "latitude": 52.05,
            "longitude": 0.3
        },
        "subclasses": {
            "class1": [
                "Chondrite"
            ],
            "class2": [
                "Ordinary"
            ],
            "class3": [
                "L"
            ]
        }
    },
    {
        "name": "Assisi",
        "id": 2353,
        "nametype": "Valid",
        "recclass": "H5",
        "mass": 2000.0,
        "fall": "Fell",
        "year": "1886-01-01T00:00:00.000",
        "reclat": 43.03333,
        "reclong": 12.55,
        "geolocation": {
            "latitude": 43.03333,
            "longitude": 12.55
        },
        "subclasses": {
            "class1": [
                "Chondrite"
            ],
            "class2": [
                "Ordinary"
            ],
            "class3": [
                "H"
            ]
        }
    },
    {
        "name": "Atarra",
        "id": 4883,
        "nametype": "Valid",
        "recclass": "L4",
        "mass": 1280.0,
        "fall": "Fell",
        "year": "1920-01-01T00:00:00.000",
        "reclat": 25.25417,
        "reclong": 80.625,
        "geolocation": {
            "latitude": 25.25417,
            "longitude": 80.625
        },
        "subclasses": {
            "class1": [
                "Chondrite"
            ],
            "class2": [
                "Ordinary"
            ],
            "class3": [
                "L"
            ]
        }
    },
    {
        "name": "Atemajac",
        "id": 4884,
        "nametype": "Valid",
        "recclass": "L6",
        "mass": 94.2,
        "fall": "Fell",
        "year": "1896-01-01T00:00:00.000",
        "reclat": 20.06667,
        "reclong": -103.66667,
        "geolocation": {
            "latitude": 20.06667,
            "longitude": -103.66667
        },
        "subclasses": {
            "class1": [
                "Chondrite"
            ],
            "class2": [
                "Ordinary"
            ],
            "class3": [
                "L"
            ]
        }
    },
    {
        "name": "Athens",
        "id": 4885,
        "nametype": "Valid",
        "recclass": "LL6",
        "mass": 265.0,
        "fall": "Fell",
        "year": "1933-01-01T00:00:00.000",
        "reclat": 34.75,
        "reclong": -87.0,
        "geolocation": {
            "latitude": 34.75,
            "longitude": -87.0
        },
        ":@computed_region_cbhk_fwbd": "29",
        ":@computed_region_nnqa_25f4": "3134",
        "subclasses": {
            "class1": [
                "Chondrite"
            ],
            "class2": [
                "Ordinary"
            ],
            "class3": [
                "LL"
            ]
        }
    },
    {
        "name": "Atoka",
        "id": 4888,
        "nametype": "Valid",
        "recclass": "L6",
        "mass": 1384.2,
        "fall": "Fell",
        "year": "1945-01-01T00:00:00.000",
        "reclat": 34.31667,
        "reclong": -96.15,
        "geolocation": {
            "latitude": 34.31667,
            "longitude": -96.15
        },
        ":@computed_region_cbhk_fwbd": "20",
        ":@computed_region_nnqa_25f4": "602",
        "subclasses": {
            "class1": [
                "Chondrite"
            ],
            "class2": [
                "Ordinary"
            ],
            "class3": [
                "L"
            ]
        }
    },
    {
        "name": "Aubres",
        "id": 4893,
        "nametype": "Valid",
        "recclass": "Aubrite",
        "mass": 800.0,
        "fall": "Fell",
        "year": "1836-01-01T00:00:00.000",
        "reclat": 44.38333,
        "reclong": 5.16667,
        "geolocation": {
            "latitude": 44.38333,
            "longitude": 5.16667
        },
        "subclasses": {
            "class1": [
                "Achondrite"
            ],
            "class2": [
                "Aubrite"
            ],
            "class3": null
        }
    },
    {
        "name": "Aumale",
        "id": 4899,
        "nametype": "Valid",
        "recclass": "L6",
        "mass": 50000.0,
        "fall": "Fell",
        "year": "1865-01-01T00:00:00.000",
        "reclat": 36.16667,
        "reclong": 3.66667,
        "geolocation": {
            "latitude": 36.16667,
            "longitude": 3.66667
        },
        "subclasses": {
            "class1": [
                "Chondrite"
            ],
            "class2": [
                "Ordinary"
            ],
            "class3": [
                "L"
            ]
        }
    },
    {
        "name": "Aumieres",
        "id": 4900,
        "nametype": "Valid",
        "recclass": "L6",
        "mass": 2000.0,
        "fall": "Fell",
        "year": "1842-01-01T00:00:00.000",
        "reclat": 44.33333,
        "reclong": 3.23333,
        "geolocation": {
            "latitude": 44.33333,
            "longitude": 3.23333
        },
        "subclasses": {
            "class1": [
                "Chondrite"
            ],
            "class2": [
                "Ordinary"
            ],
            "class3": [
                "L"
            ]
        }
    },
    {
        "name": "Ausson",
        "id": 4903,
        "nametype": "Valid",
        "recclass": "L5",
        "mass": 50000.0,
        "fall": "Fell",
        "year": "1858-01-01T00:00:00.000",
        "reclat": 43.08333,
        "reclong": 0.58333,
        "geolocation": {
            "latitude": 43.08333,
            "longitude": 0.58333
        },
        "subclasses": {
            "class1": [
                "Chondrite"
            ],
            "class2": [
                "Ordinary"
            ],
            "class3": [
                "L"
            ]
        }
    },
    {
        "name": "Avanhandava",
        "id": 4905,
        "nametype": "Valid",
        "recclass": "H4",
        "mass": 9330.0,
        "fall": "Fell",
        "year": "1952-01-01T00:00:00.000",
        "reclat": -21.46028,
        "reclong": -49.95083,
        "geolocation": {
            "latitude": -21.46028,
            "longitude": -49.95083
        },
        "subclasses": {
            "class1": [
                "Chondrite"
            ],
            "class2": [
                "Ordinary"
            ],
            "class3": [
                "H"
            ]
        }
    },
    {
        "name": "Avce",
        "id": 4906,
        "nametype": "Valid",
        "recclass": "Iron, IIAB",
        "mass": 1230.0,
        "fall": "Fell",
        "year": "1908-01-01T00:00:00.000",
        "reclat": 46.0,
        "reclong": 13.5,
        "geolocation": {
            "latitude": 46.0,
            "longitude": 13.5
        },
        "subclasses": {
            "class1": [
                "Iron"
            ],
            "class2": [
                "Iron IIAB"
            ],
            "class3": null
        }
    },
    {
        "name": "Avilez",
        "id": 4907,
        "nametype": "Valid",
        "recclass": "H",
        "mass": 146.0,
        "fall": "Fell",
        "year": "1855-01-01T00:00:00.000",
        "reclat": 25.0,
        "reclong": -103.5,
        "geolocation": {
            "latitude": 25.0,
            "longitude": -103.5
        },
        "subclasses": {
            "class1": [
                "Chondrite"
            ],
            "class2": [
                "Ordinary"
            ],
            "class3": [
                "H"
            ]
        }
    },
    {
        "name": "Awere",
        "id": 4910,
        "nametype": "Valid",
        "recclass": "L4",
        "mass": 134.0,
        "fall": "Fell",
        "year": "1968-01-01T00:00:00.000",
        "reclat": 2.71667,
        "reclong": 32.83333,
        "geolocation": {
            "latitude": 2.71667,
            "longitude": 32.83333
        },
        "subclasses": {
            "class1": [
                "Chondrite"
            ],
            "class2": [
                "Ordinary"
            ],
            "class3": [
                "L"
            ]
        }
    },
    {
        "name": "Aztec",
        "id": 4913,
        "nametype": "Valid",
        "recclass": "L6",
        "mass": 2830.0,
        "fall": "Fell",
        "year": "1938-01-01T00:00:00.000",
        "reclat": 36.8,
        "reclong": -108.0,
        "geolocation": {
            "latitude": 36.8,
            "longitude": -108.0
        },
        ":@computed_region_cbhk_fwbd": "11",
        ":@computed_region_nnqa_25f4": "1989",
        "subclasses": {
            "class1": [
                "Chondrite"
            ],
            "class2": [
                "Ordinary"
            ],
            "class3": [
                "L"
            ]
        }
    },
    {
        "name": "Bachmut",
        "id": 4917,
        "nametype": "Valid",
        "recclass": "L6",
        "mass": 18000.0,
        "fall": "Fell",
        "year": "1814-01-01T00:00:00.000",
        "reclat": 48.6,
        "reclong": 38.0,
        "geolocation": {
            "latitude": 48.6,
            "longitude": 38.0
        },
        "subclasses": {
            "class1": [
                "Chondrite"
            ],
            "class2": [
                "Ordinary"
            ],
            "class3": [
                "L"
            ]
        }
    },
    {
        "name": "Bahjoi",
        "id": 4922,
        "nametype": "Valid",
        "recclass": "Iron, IAB-sLL",
        "mass": 10322.0,
        "fall": "Fell",
        "year": "1934-01-01T00:00:00.000",
        "reclat": 28.48333,
        "reclong": 78.5,
        "geolocation": {
            "latitude": 28.48333,
            "longitude": 78.5
        },
        "subclasses": {
            "class1": [
                "Iron"
            ],
            "class2": [
                "Iron IAB"
            ],
            "class3": null
        }
    },
    {
        "name": "Bald Mountain",
        "id": 4925,
        "nametype": "Valid",
        "recclass": "L4",
        "mass": 3700.0,
        "fall": "Fell",
        "year": "1929-01-01T00:00:00.000",
        "reclat": 35.96667,
        "reclong": -82.48333,
        "geolocation": {
            "latitude": 35.96667,
            "longitude": -82.48333
        },
        ":@computed_region_cbhk_fwbd": "37",
        ":@computed_region_nnqa_25f4": "2373",
        "subclasses": {
            "class1": [
                "Chondrite"
            ],
            "class2": [
                "Ordinary"
            ],
            "class3": [
                "L"
            ]
        }
    },
    {
        "name": "Baldwyn",
        "id": 4926,
        "nametype": "Valid",
        "recclass": "L6",
        "mass": 345.0,
        "fall": "Fell",
        "year": "1922-01-01T00:00:00.000",
        "reclat": 34.5,
        "reclong": -88.66667,
        "geolocation": {
            "latitude": 34.5,
            "longitude": -88.66667
        },
        ":@computed_region_cbhk_fwbd": "32",
        ":@computed_region_nnqa_25f4": "495",
        "subclasses": {
            "class1": [
                "Chondrite"
            ],
            "class2": [
                "Ordinary"
            ],
            "class3": [
                "L"
            ]
        }
    },
    {
        "name": "Bali",
        "id": 4928,
        "nametype": "Valid",
        "recclass": "CV3",
        "mass": 1000.0,
        "fall": "Fell",
        "year": "1907-01-01T00:00:00.000",
        "reclat": 5.38333,
        "reclong": 16.38333,
        "geolocation": {
            "latitude": 5.38333,
            "longitude": 16.38333
        },
        "subclasses": {
            "class1": [
                "Chondrite"
            ],
            "class2": [
                "Carbonacous"
            ],
            "class3": [
                "CV"
            ]
        }
    },
    {
        "name": "Ban Rong Du",
        "id": 4934,
        "nametype": "Valid",
        "recclass": "Iron, ungrouped",
        "mass": 16700.0,
        "fall": "Fell",
        "year": "1993-01-01T00:00:00.000",
        "reclat": 16.66667,
        "reclong": 101.18333,
        "geolocation": {
            "latitude": 16.66667,
            "longitude": 101.18333
        },
        "subclasses": {
            "class1": [
                "Iron"
            ],
            "class2": [
                "Other Iron"
            ],
            "class3": null
        }
    },
    {
        "name": "Bandong",
        "id": 4935,
        "nametype": "Valid",
        "recclass": "LL6",
        "mass": 11500.0,
        "fall": "Fell",
        "year": "1871-01-01T00:00:00.000",
        "reclat": -6.91667,
        "reclong": 107.6,
        "geolocation": {
            "latitude": -6.91667,
            "longitude": 107.6
        },
        "subclasses": {
            "class1": [
                "Chondrite"
            ],
            "class2": [
                "Ordinary"
            ],
            "class3": [
                "LL"
            ]
        }
    },
    {
        "name": "Bansur",
        "id": 4936,
        "nametype": "Valid",
        "recclass": "L6",
        "mass": 15000.0,
        "fall": "Fell",
        "year": "1892-01-01T00:00:00.000",
        "reclat": 27.7,
        "reclong": 76.33333,
        "geolocation": {
            "latitude": 27.7,
            "longitude": 76.33333
        },
        "subclasses": {
            "class1": [
                "Chondrite"
            ],
            "class2": [
                "Ordinary"
            ],
            "class3": [
                "L"
            ]
        }
    },
    {
        "name": "Banswal",
        "id": 4937,
        "nametype": "Valid",
        "recclass": "L5",
        "mass": 14.0,
        "fall": "Fell",
        "year": "1913-01-01T00:00:00.000",
        "reclat": 30.4,
        "reclong": 78.2,
        "geolocation": {
            "latitude": 30.4,
            "longitude": 78.2
        },
        "subclasses": {
            "class1": [
                "Chondrite"
            ],
            "class2": [
                "Ordinary"
            ],
            "class3": [
                "L"
            ]
        }
    },
    {
        "name": "Banten",
        "id": 4938,
        "nametype": "Valid",
        "recclass": "CM2",
        "mass": 629.0,
        "fall": "Fell",
        "year": "1933-01-01T00:00:00.000",
        "reclat": -6.33333,
        "reclong": 106.0,
        "geolocation": {
            "latitude": -6.33333,
            "longitude": 106.0
        },
        "subclasses": {
            "class1": [
                "Chondrite"
            ],
            "class2": [
                "Carbonacous"
            ],
            "class3": [
                "CM"
            ]
        }
    },
    {
        "name": "Barbotan",
        "id": 4942,
        "nametype": "Valid",
        "recclass": "H5",
        "mass": 6400.0,
        "fall": "Fell",
        "year": "1790-01-01T00:00:00.000",
        "reclat": 43.95,
        "reclong": -0.05,
        "geolocation": {
            "latitude": 43.95,
            "longitude": -0.05
        },
        "subclasses": {
            "class1": [
                "Chondrite"
            ],
            "class2": [
                "Ordinary"
            ],
            "class3": [
                "H"
            ]
        }
    },
    {
        "name": "Barcelona (stone)",
        "id": 4944,
        "nametype": "Valid",
        "recclass": "OC",
        "fall": "Fell",
        "year": "1704-01-01T00:00:00.000",
        "reclat": 41.36667,
        "reclong": 2.16667,
        "geolocation": {
            "latitude": 41.36667,
            "longitude": 2.16667
        },
        "subclasses": {
            "class1": [
                "Chondrite"
            ],
            "class2": [
                "Ordinary"
            ],
            "class3": [
                "Other Ordinary Chondrite"
            ]
        }
    },
    {
        "name": "Barea",
        "id": 4946,
        "nametype": "Valid",
        "recclass": "Mesosiderite-A1",
        "mass": 3200.0,
        "fall": "Fell",
        "year": "1842-01-01T00:00:00.000",
        "reclat": 42.38333,
        "reclong": -2.5,
        "geolocation": {
            "latitude": 42.38333,
            "longitude": -2.5
        },
        "subclasses": {
            "class1": [
                "Stony-iron"
            ],
            "class2": [
                "Mesosiderite"
            ],
            "class3": null
        }
    },
    {
        "name": "Barnaul",
        "id": 4947,
        "nametype": "Valid",
        "recclass": "H5",
        "mass": 23.2,
        "fall": "Fell",
        "year": "1904-01-01T00:00:00.000",
        "reclat": 52.73333,
        "reclong": 84.08333,
        "geolocation": {
            "latitude": 52.73333,
            "longitude": 84.08333
        },
        "subclasses": {
            "class1": [
                "Chondrite"
            ],
            "class2": [
                "Ordinary"
            ],
            "class3": [
                "H"
            ]
        }
    },
    {
        "name": "Barntrup",
        "id": 4948,
        "nametype": "Valid",
        "recclass": "LL4",
        "mass": 17.0,
        "fall": "Fell",
        "year": "1886-01-01T00:00:00.000",
        "reclat": 52.0,
        "reclong": 9.1,
        "geolocation": {
            "latitude": 52.0,
            "longitude": 9.1
        },
        "subclasses": {
            "class1": [
                "Chondrite"
            ],
            "class2": [
                "Ordinary"
            ],
            "class3": [
                "LL"
            ]
        }
    },
    {
        "name": "Baroti",
        "id": 4949,
        "nametype": "Valid",
        "recclass": "L6",
        "mass": 4500.0,
        "fall": "Fell",
        "year": "1910-01-01T00:00:00.000",
        "reclat": 31.61667,
        "reclong": 76.8,
        "geolocation": {
            "latitude": 31.61667,
            "longitude": 76.8
        },
        "subclasses": {
            "class1": [
                "Chondrite"
            ],
            "class2": [
                "Ordinary"
            ],
            "class3": [
                "L"
            ]
        }
    },
    {
        "name": "Barwell",
        "id": 4954,
        "nametype": "Valid",
        "recclass": "L5",
        "mass": 44000.0,
        "fall": "Fell",
        "year": "1965-01-01T00:00:00.000",
        "reclat": 52.56528,
        "reclong": -1.33972,
        "geolocation": {
            "latitude": 52.56528,
            "longitude": -1.33972
        },
        "subclasses": {
            "class1": [
                "Chondrite"
            ],
            "class2": [
                "Ordinary"
            ],
            "class3": [
                "L"
            ]
        }
    },
    {
        "name": "Bassikounou",
        "id": 44876,
        "nametype": "Valid",
        "recclass": "H5",
        "mass": 29560.0,
        "fall": "Fell",
        "year": "2006-01-01T00:00:00.000",
        "reclat": 15.78333,
        "reclong": -5.9,
        "geolocation": {
            "latitude": 15.78333,
            "longitude": -5.9
        },
        "subclasses": {
            "class1": [
                "Chondrite"
            ],
            "class2": [
                "Ordinary"
            ],
            "class3": [
                "H"
            ]
        }
    },
    {
        "name": "Baszk\u00f3wka",
        "id": 4957,
        "nametype": "Valid",
        "recclass": "L5",
        "mass": 15500.0,
        "fall": "Fell",
        "year": "1994-01-01T00:00:00.000",
        "reclat": 52.03333,
        "reclong": 20.93583,
        "geolocation": {
            "latitude": 52.03333,
            "longitude": 20.93583
        },
        "subclasses": {
            "class1": [
                "Chondrite"
            ],
            "class2": [
                "Ordinary"
            ],
            "class3": [
                "L"
            ]
        }
    },
    {
        "name": "Bath",
        "id": 4974,
        "nametype": "Valid",
        "recclass": "H4",
        "mass": 21000.0,
        "fall": "Fell",
        "year": "1892-01-01T00:00:00.000",
        "reclat": 45.41667,
        "reclong": -98.31667,
        "geolocation": {
            "latitude": 45.41667,
            "longitude": -98.31667
        },
        ":@computed_region_cbhk_fwbd": "21",
        ":@computed_region_nnqa_25f4": "662",
        "subclasses": {
            "class1": [
                "Chondrite"
            ],
            "class2": [
                "Ordinary"
            ],
            "class3": [
                "H"
            ]
        }
    },
    {
        "name": "Bath Furnace",
        "id": 4975,
        "nametype": "Valid",
        "recclass": "L6",
        "mass": 86000.0,
        "fall": "Fell",
        "year": "1902-01-01T00:00:00.000",
        "reclat": 38.25,
        "reclong": -83.75,
        "geolocation": {
            "latitude": 38.25,
            "longitude": -83.75
        },
        ":@computed_region_cbhk_fwbd": "36",
        ":@computed_region_nnqa_25f4": "1921",
        "subclasses": {
            "class1": [
                "Chondrite"
            ],
            "class2": [
                "Ordinary"
            ],
            "class3": [
                "L"
            ]
        }
    },
    {
        "name": "Battle Mountain",
        "id": 56133,
        "nametype": "Valid",
        "recclass": "L6",
        "mass": 2900.0,
        "fall": "Fell",
        "year": "2012-01-01T00:00:00.000",
        "reclat": 40.66813,
        "reclong": -117.18913,
        "geolocation": {
            "latitude": 40.66813,
            "longitude": -117.18913
        },
        ":@computed_region_cbhk_fwbd": "10",
        ":@computed_region_nnqa_25f4": "2397",
        "subclasses": {
            "class1": [
                "Chondrite"
            ],
            "class2": [
                "Ordinary"
            ],
            "class3": [
                "L"
            ]
        }
    },
    {
        "name": "Bawku",
        "id": 4976,
        "nametype": "Valid",
        "recclass": "LL5",
        "mass": 1557.0,
        "fall": "Fell",
        "year": "1989-01-01T00:00:00.000",
        "reclat": 11.08333,
        "reclong": -0.18333,
        "geolocation": {
            "latitude": 11.08333,
            "longitude": -0.18333
        },
        "subclasses": {
            "class1": [
                "Chondrite"
            ],
            "class2": [
                "Ordinary"
            ],
            "class3": [
                "LL"
            ]
        }
    },
    {
        "name": "Baxter",
        "id": 4977,
        "nametype": "Valid",
        "recclass": "L6",
        "mass": 611.0,
        "fall": "Fell",
        "year": "1916-01-01T00:00:00.000",
        "reclat": 36.75,
        "reclong": -93.5,
        "geolocation": {
            "latitude": 36.75,
            "longitude": -93.5
        },
        ":@computed_region_cbhk_fwbd": "18",
        ":@computed_region_nnqa_25f4": "2216",
        "subclasses": {
            "class1": [
                "Chondrite"
            ],
            "class2": [
                "Ordinary"
            ],
            "class3": [
                "L"
            ]
        }
    },
    {
        "name": "Beardsley",
        "id": 4984,
        "nametype": "Valid",
        "recclass": "H5",
        "mass": 16000.0,
        "fall": "Fell",
        "year": "1929-01-01T00:00:00.000",
        "reclat": 39.8,
        "reclong": -101.2,
        "geolocation": {
            "latitude": 39.8,
            "longitude": -101.2
        },
        ":@computed_region_cbhk_fwbd": "17",
        ":@computed_region_nnqa_25f4": "1285",
        "subclasses": {
            "class1": [
                "Chondrite"
            ],
            "class2": [
                "Ordinary"
            ],
            "class3": [
                "H"
            ]
        }
    },
    {
        "name": "Beaver Creek",
        "id": 4986,
        "nametype": "Valid",
        "recclass": "H5",
        "mass": 14000.0,
        "fall": "Fell",
        "year": "1893-01-01T00:00:00.000",
        "reclat": 51.16667,
        "reclong": -117.33333,
        "geolocation": {
            "latitude": 51.16667,
            "longitude": -117.33333
        },
        "subclasses": {
            "class1": [
                "Chondrite"
            ],
            "class2": [
                "Ordinary"
            ],
            "class3": [
                "H"
            ]
        }
    },
    {
        "name": "Beddgelert",
        "id": 4993,
        "nametype": "Valid",
        "recclass": "H5",
        "mass": 794.0,
        "fall": "Fell",
        "year": "1949-01-01T00:00:00.000",
        "reclat": 53.01667,
        "reclong": -4.1,
        "geolocation": {
            "latitude": 53.01667,
            "longitude": -4.1
        },
        "subclasses": {
            "class1": [
                "Chondrite"
            ],
            "class2": [
                "Ordinary"
            ],
            "class3": [
                "H"
            ]
        }
    },
    {
        "name": "Bells",
        "id": 5005,
        "nametype": "Valid",
        "recclass": "C2-ung",
        "mass": 375.0,
        "fall": "Fell",
        "year": "1961-01-01T00:00:00.000",
        "reclat": 33.6,
        "reclong": -96.46667,
        "geolocation": {
            "latitude": 33.6,
            "longitude": -96.46667
        },
        ":@computed_region_cbhk_fwbd": "23",
        ":@computed_region_nnqa_25f4": "1978",
        "subclasses": {
            "class1": [
                "Chondrite"
            ],
            "class2": [
                "Carbonacous"
            ],
            "class3": [
                "C"
            ]
        }
    },
    {
        "name": "Belville",
        "id": 5009,
        "nametype": "Valid",
        "recclass": "OC",
        "fall": "Fell",
        "year": "1937-01-01T00:00:00.000",
        "reclat": -32.33333,
        "reclong": -64.86667,
        "geolocation": {
            "latitude": -32.33333,
            "longitude": -64.86667
        },
        "subclasses": {
            "class1": [
                "Chondrite"
            ],
            "class2": [
                "Ordinary"
            ],
            "class3": [
                "Other Ordinary Chondrite"
            ]
        }
    },
    {
        "name": "Benares (a)",
        "id": 5011,
        "nametype": "Valid",
        "recclass": "LL4",
        "mass": 3700.0,
        "fall": "Fell",
        "year": "1798-01-01T00:00:00.000",
        "reclat": 25.36667,
        "reclong": 82.91667,
        "geolocation": {
            "latitude": 25.36667,
            "longitude": 82.91667
        },
        "subclasses": {
            "class1": [
                "Chondrite"
            ],
            "class2": [
                "Ordinary"
            ],
            "class3": [
                "LL"
            ]
        }
    },
    {
        "name": "Benguerir",
        "id": 30443,
        "nametype": "Valid",
        "recclass": "LL6",
        "mass": 25000.0,
        "fall": "Fell",
        "year": "2004-01-01T00:00:00.000",
        "reclat": 32.25,
        "reclong": -8.15,
        "geolocation": {
            "latitude": 32.25,
            "longitude": -8.15
        },
        "subclasses": {
            "class1": [
                "Chondrite"
            ],
            "class2": [
                "Ordinary"
            ],
            "class3": [
                "LL"
            ]
        }
    },
    {
        "name": "Beni M'hira",
        "id": 5018,
        "nametype": "Valid",
        "recclass": "L6",
        "mass": 19000.0,
        "fall": "Fell",
        "year": "2001-01-01T00:00:00.000",
        "reclat": 32.86667,
        "reclong": 10.8,
        "geolocation": {
            "latitude": 32.86667,
            "longitude": 10.8
        },
        "subclasses": {
            "class1": [
                "Chondrite"
            ],
            "class2": [
                "Ordinary"
            ],
            "class3": [
                "L"
            ]
        }
    },
    {
        "name": "Benld",
        "id": 5021,
        "nametype": "Valid",
        "recclass": "H6",
        "mass": 1770.5,
        "fall": "Fell",
        "year": "1938-01-01T00:00:00.000",
        "reclat": 39.08333,
        "reclong": -89.15,
        "geolocation": {
            "latitude": 39.08333,
            "longitude": -89.15
        },
        ":@computed_region_cbhk_fwbd": "34",
        ":@computed_region_nnqa_25f4": "1869",
        "subclasses": {
            "class1": [
                "Chondrite"
            ],
            "class2": [
                "Ordinary"
            ],
            "class3": [
                "H"
            ]
        }
    },
    {
        "name": "Benoni",
        "id": 5023,
        "nametype": "Valid",
        "recclass": "H6",
        "mass": 3880.0,
        "fall": "Fell",
        "year": "1943-01-01T00:00:00.000",
        "reclat": -26.16667,
        "reclong": 28.41667,
        "geolocation": {
            "latitude": -26.16667,
            "longitude": 28.41667
        },
        "subclasses": {
            "class1": [
                "Chondrite"
            ],
            "class2": [
                "Ordinary"
            ],
            "class3": [
                "H"
            ]
        }
    },
    {
        "name": "Bensour",
        "id": 5024,
        "nametype": "Valid",
        "recclass": "LL6",
        "mass": 45000.0,
        "fall": "Fell",
        "year": "2002-01-01T00:00:00.000",
        "reclat": 30.0,
        "reclong": -7.0,
        "geolocation": {
            "latitude": 30.0,
            "longitude": -7.0
        },
        "subclasses": {
            "class1": [
                "Chondrite"
            ],
            "class2": [
                "Ordinary"
            ],
            "class3": [
                "LL"
            ]
        }
    },
    {
        "name": "Benton",
        "id": 5026,
        "nametype": "Valid",
        "recclass": "LL6",
        "mass": 2840.0,
        "fall": "Fell",
        "year": "1949-01-01T00:00:00.000",
        "reclat": 45.95,
        "reclong": -67.55,
        "geolocation": {
            "latitude": 45.95,
            "longitude": -67.55
        },
        "subclasses": {
            "class1": [
                "Chondrite"
            ],
            "class2": [
                "Ordinary"
            ],
            "class3": [
                "LL"
            ]
        }
    },
    {
        "name": "Berduc",
        "id": 48975,
        "nametype": "Valid",
        "recclass": "L6",
        "mass": 270.0,
        "fall": "Fell",
        "year": "2008-01-01T00:00:00.000",
        "reclat": -31.91,
        "reclong": -58.32833,
        "geolocation": {
            "latitude": -31.91,
            "longitude": -58.32833
        },
        "subclasses": {
            "class1": [
                "Chondrite"
            ],
            "class2": [
                "Ordinary"
            ],
            "class3": [
                "L"
            ]
        }
    },
    {
        "name": "B\u00e9r\u00e9ba",
        "id": 5028,
        "nametype": "Valid",
        "recclass": "Eucrite-mmict",
        "mass": 18000.0,
        "fall": "Fell",
        "year": "1924-01-01T00:00:00.000",
        "reclat": 11.65,
        "reclong": -3.65,
        "geolocation": {
            "latitude": 11.65,
            "longitude": -3.65
        },
        "subclasses": {
            "class1": [
                "Achondrite"
            ],
            "class2": [
                "HED"
            ],
            "class3": [
                "Eucrite"
            ]
        }
    },
    {
        "name": "Berlanguillas",
        "id": 5029,
        "nametype": "Valid",
        "recclass": "L6",
        "mass": 1440.0,
        "fall": "Fell",
        "year": "1811-01-01T00:00:00.000",
        "reclat": 41.68333,
        "reclong": -3.8,
        "geolocation": {
            "latitude": 41.68333,
            "longitude": -3.8
        },
        "subclasses": {
            "class1": [
                "Chondrite"
            ],
            "class2": [
                "Ordinary"
            ],
            "class3": [
                "L"
            ]
        }
    },
    {
        "name": "Berthoud",
        "id": 47355,
        "nametype": "Valid",
        "recclass": "Eucrite-mmict",
        "mass": 960.0,
        "fall": "Fell",
        "year": "2004-01-01T00:00:00.000",
        "reclat": 40.30583,
        "reclong": -105.02325,
        "geolocation": {
            "latitude": 40.30583,
            "longitude": -105.02325
        },
        ":@computed_region_cbhk_fwbd": "9",
        ":@computed_region_nnqa_25f4": "1072",
        "subclasses": {
            "class1": [
                "Achondrite"
            ],
            "class2": [
                "HED"
            ],
            "class3": [
                "Eucrite"
            ]
        }
    },
    {
        "name": "Bethlehem",
        "id": 5032,
        "nametype": "Valid",
        "recclass": "H",
        "mass": 13.9,
        "fall": "Fell",
        "year": "1859-01-01T00:00:00.000",
        "reclat": 42.53333,
        "reclong": -73.83333,
        "geolocation": {
            "latitude": 42.53333,
            "longitude": -73.83333
        },
        ":@computed_region_cbhk_fwbd": "47",
        ":@computed_region_nnqa_25f4": "2030",
        "subclasses": {
            "class1": [
                "Chondrite"
            ],
            "class2": [
                "Ordinary"
            ],
            "class3": [
                "H"
            ]
        }
    },
    {
        "name": "Beuste",
        "id": 5034,
        "nametype": "Valid",
        "recclass": "L5",
        "mass": 2000.0,
        "fall": "Fell",
        "year": "1859-01-01T00:00:00.000",
        "reclat": 43.21667,
        "reclong": -0.23333,
        "geolocation": {
            "latitude": 43.21667,
            "longitude": -0.23333
        },
        "subclasses": {
            "class1": [
                "Chondrite"
            ],
            "class2": [
                "Ordinary"
            ],
            "class3": [
                "L"
            ]
        }
    },
    {
        "name": "Beyrout",
        "id": 5035,
        "nametype": "Valid",
        "recclass": "LL3.8",
        "mass": 1100.0,
        "fall": "Fell",
        "year": "1921-01-01T00:00:00.000",
        "reclat": 33.88333,
        "reclong": 35.5,
        "geolocation": {
            "latitude": 33.88333,
            "longitude": 35.5
        },
        "subclasses": {
            "class1": [
                "Chondrite"
            ],
            "class2": [
                "Ordinary"
            ],
            "class3": [
                "LL"
            ]
        }
    },
    {
        "name": "Bhagur",
        "id": 5037,
        "nametype": "Valid",
        "recclass": "L6",
        "mass": 18.0,
        "fall": "Fell",
        "year": "1877-01-01T00:00:00.000",
        "reclat": 20.88333,
        "reclong": 74.83333,
        "geolocation": {
            "latitude": 20.88333,
            "longitude": 74.83333
        },
        "subclasses": {
            "class1": [
                "Chondrite"
            ],
            "class2": [
                "Ordinary"
            ],
            "class3": [
                "L"
            ]
        }
    },
    {
        "name": "Bhawad",
        "id": 36591,
        "nametype": "Valid",
        "recclass": "LL6",
        "mass": 678.0,
        "fall": "Fell",
        "year": "2002-01-01T00:00:00.000",
        "reclat": 26.50833,
        "reclong": 73.11528,
        "geolocation": {
            "latitude": 26.50833,
            "longitude": 73.11528
        },
        "subclasses": {
            "class1": [
                "Chondrite"
            ],
            "class2": [
                "Ordinary"
            ],
            "class3": [
                "LL"
            ]
        }
    },
    {
        "name": "Bherai",
        "id": 5039,
        "nametype": "Valid",
        "recclass": "L6",
        "mass": 100.0,
        "fall": "Fell",
        "year": "1893-01-01T00:00:00.000",
        "reclat": 20.83333,
        "reclong": 71.46667,
        "geolocation": {
            "latitude": 20.83333,
            "longitude": 71.46667
        },
        "subclasses": {
            "class1": [
                "Chondrite"
            ],
            "class2": [
                "Ordinary"
            ],
            "class3": [
                "L"
            ]
        }
    },
    {
        "name": "Bhola",
        "id": 5040,
        "nametype": "Valid",
        "recclass": "LL3-6",
        "mass": 1047.0,
        "fall": "Fell",
        "year": "1940-01-01T00:00:00.000",
        "reclat": 22.68333,
        "reclong": 90.65,
        "geolocation": {
            "latitude": 22.68333,
            "longitude": 90.65
        },
        "subclasses": {
            "class1": [
                "Chondrite"
            ],
            "class2": [
                "Ordinary"
            ],
            "class3": [
                "LL"
            ]
        }
    },
    {
        "name": "Bholghati",
        "id": 5041,
        "nametype": "Valid",
        "recclass": "Howardite",
        "mass": 2500.0,
        "fall": "Fell",
        "year": "1905-01-01T00:00:00.000",
        "reclat": 22.08333,
        "reclong": 86.9,
        "geolocation": {
            "latitude": 22.08333,
            "longitude": 86.9
        },
        "subclasses": {
            "class1": [
                "Achondrite"
            ],
            "class2": [
                "HED"
            ],
            "class3": [
                "Howardite"
            ]
        }
    },
    {
        "name": "Bialystok",
        "id": 5042,
        "nametype": "Valid",
        "recclass": "Eucrite-pmict",
        "mass": 4000.0,
        "fall": "Fell",
        "year": "1827-01-01T00:00:00.000",
        "reclat": 53.1,
        "reclong": 23.2,
        "geolocation": {
            "latitude": 53.1,
            "longitude": 23.2
        },
        "subclasses": {
            "class1": [
                "Achondrite"
            ],
            "class2": [
                "HED"
            ],
            "class3": [
                "Eucrite"
            ]
        }
    },
    {
        "name": "Bielokrynitschie",
        "id": 5043,
        "nametype": "Valid",
        "recclass": "H4",
        "mass": 1900.0,
        "fall": "Fell",
        "year": "1887-01-01T00:00:00.000",
        "reclat": 50.13333,
        "reclong": 27.16667,
        "geolocation": {
            "latitude": 50.13333,
            "longitude": 27.16667
        },
        "subclasses": {
            "class1": [
                "Chondrite"
            ],
            "class2": [
                "Ordinary"
            ],
            "class3": [
                "H"
            ]
        }
    },
    {
        "name": "Bilanga",
        "id": 5045,
        "nametype": "Valid",
        "recclass": "Diogenite",
        "mass": 25000.0,
        "fall": "Fell",
        "year": "1999-01-01T00:00:00.000",
        "reclat": 12.45,
        "reclong": -0.08333,
        "geolocation": {
            "latitude": 12.45,
            "longitude": -0.08333
        },
        "subclasses": {
            "class1": [
                "Achondrite"
            ],
            "class2": [
                "HED"
            ],
            "class3": [
                "Diogenite"
            ]
        }
    },
    {
        "name": "Binningup",
        "id": 5051,
        "nametype": "Valid",
        "recclass": "H5",
        "mass": 488.1,
        "fall": "Fell",
        "year": "1984-01-01T00:00:00.000",
        "reclat": -33.15639,
        "reclong": 115.67639,
        "geolocation": {
            "latitude": -33.15639,
            "longitude": 115.67639
        },
        "subclasses": {
            "class1": [
                "Chondrite"
            ],
            "class2": [
                "Ordinary"
            ],
            "class3": [
                "H"
            ]
        }
    },
    {
        "name": "Birni N'konni",
        "id": 5056,
        "nametype": "Valid",
        "recclass": "H4",
        "mass": 560.0,
        "fall": "Fell",
        "year": "1923-01-01T00:00:00.000",
        "reclat": 13.76667,
        "reclong": 5.3,
        "geolocation": {
            "latitude": 13.76667,
            "longitude": 5.3
        },
        "subclasses": {
            "class1": [
                "Chondrite"
            ],
            "class2": [
                "Ordinary"
            ],
            "class3": [
                "H"
            ]
        }
    },
    {
        "name": "Bishopville",
        "id": 5059,
        "nametype": "Valid",
        "recclass": "Aubrite",
        "mass": 6000.0,
        "fall": "Fell",
        "year": "1843-01-01T00:00:00.000",
        "reclat": 34.16667,
        "reclong": -80.28333,
        "geolocation": {
            "latitude": 34.16667,
            "longitude": -80.28333
        },
        ":@computed_region_cbhk_fwbd": "33",
        ":@computed_region_nnqa_25f4": "657",
        "subclasses": {
            "class1": [
                "Achondrite"
            ],
            "class2": [
                "Aubrite"
            ],
            "class3": null
        }
    },
    {
        "name": "Bishunpur",
        "id": 5060,
        "nametype": "Valid",
        "recclass": "LL3.15",
        "mass": 1039.0,
        "fall": "Fell",
        "year": "1895-01-01T00:00:00.000",
        "reclat": 25.38333,
        "reclong": 82.6,
        "geolocation": {
            "latitude": 25.38333,
            "longitude": 82.6
        },
        "subclasses": {
            "class1": [
                "Chondrite"
            ],
            "class2": [
                "Ordinary"
            ],
            "class3": [
                "LL"
            ]
        }
    },
    {
        "name": "Bjelaja Zerkov",
        "id": 5063,
        "nametype": "Valid",
        "recclass": "H6",
        "mass": 1850.0,
        "fall": "Fell",
        "year": "1796-01-01T00:00:00.000",
        "reclat": 49.78333,
        "reclong": 30.16667,
        "geolocation": {
            "latitude": 49.78333,
            "longitude": 30.16667
        },
        "subclasses": {
            "class1": [
                "Chondrite"
            ],
            "class2": [
                "Ordinary"
            ],
            "class3": [
                "H"
            ]
        }
    },
    {
        "name": "Bjurb\u00f6le",
        "id": 5064,
        "nametype": "Valid",
        "recclass": "L/LL4",
        "mass": 330000.0,
        "fall": "Fell",
        "year": "1899-01-01T00:00:00.000",
        "reclat": 60.4,
        "reclong": 25.8,
        "geolocation": {
            "latitude": 60.4,
            "longitude": 25.8
        },
        "subclasses": {
            "class1": [
                "Chondrite"
            ],
            "class2": [
                "Ordinary"
            ],
            "class3": [
                "L",
                "LL"
            ]
        }
    },
    {
        "name": "Black Moshannan Park",
        "id": 5065,
        "nametype": "Valid",
        "recclass": "L5",
        "mass": 705.0,
        "fall": "Fell",
        "year": "1941-01-01T00:00:00.000",
        "reclat": 40.91667,
        "reclong": -78.08333,
        "geolocation": {
            "latitude": 40.91667,
            "longitude": -78.08333
        },
        ":@computed_region_cbhk_fwbd": "48",
        ":@computed_region_nnqa_25f4": "2495",
        "subclasses": {
            "class1": [
                "Chondrite"
            ],
            "class2": [
                "Ordinary"
            ],
            "class3": [
                "L"
            ]
        }
    },
    {
        "name": "Blackwell",
        "id": 5068,
        "nametype": "Valid",
        "recclass": "L5",
        "mass": 2381.0,
        "fall": "Fell",
        "year": "1906-01-01T00:00:00.000",
        "reclat": 36.83333,
        "reclong": -97.33333,
        "geolocation": {
            "latitude": 36.83333,
            "longitude": -97.33333
        },
        ":@computed_region_cbhk_fwbd": "20",
        ":@computed_region_nnqa_25f4": "2164",
        "subclasses": {
            "class1": [
                "Chondrite"
            ],
            "class2": [
                "Ordinary"
            ],
            "class3": [
                "L"
            ]
        }
    },
    {
        "name": "Blanket",
        "id": 5071,
        "nametype": "Valid",
        "recclass": "L6",
        "mass": 5100.0,
        "fall": "Fell",
        "year": "1909-01-01T00:00:00.000",
        "reclat": 31.83333,
        "reclong": -98.83333,
        "geolocation": {
            "latitude": 31.83333,
            "longitude": -98.83333
        },
        ":@computed_region_cbhk_fwbd": "23",
        ":@computed_region_nnqa_25f4": "3063",
        "subclasses": {
            "class1": [
                "Chondrite"
            ],
            "class2": [
                "Ordinary"
            ],
            "class3": [
                "L"
            ]
        }
    },
    {
        "name": "Blansko",
        "id": 5072,
        "nametype": "Valid",
        "recclass": "H6",
        "mass": 470.0,
        "fall": "Fell",
        "year": "1833-01-01T00:00:00.000",
        "reclat": 49.36667,
        "reclong": 16.63333,
        "geolocation": {
            "latitude": 49.36667,
            "longitude": 16.63333
        },
        "subclasses": {
            "class1": [
                "Chondrite"
            ],
            "class2": [
                "Ordinary"
            ],
            "class3": [
                "H"
            ]
        }
    },
    {
        "name": "Bloomington",
        "id": 5076,
        "nametype": "Valid",
        "recclass": "LL6",
        "mass": 67.8,
        "fall": "Fell",
        "year": "1938-01-01T00:00:00.000",
        "reclat": 40.48,
        "reclong": -89.00417,
        "geolocation": {
            "latitude": 40.48,
            "longitude": -89.00417
        },
        ":@computed_region_cbhk_fwbd": "34",
        ":@computed_region_nnqa_25f4": "1795",
        "subclasses": {
            "class1": [
                "Chondrite"
            ],
            "class2": [
                "Ordinary"
            ],
            "class3": [
                "LL"
            ]
        }
    },
    {
        "name": "Bo Xian",
        "id": 5090,
        "nametype": "Valid",
        "recclass": "LL3.9",
        "mass": 7500.0,
        "fall": "Fell",
        "year": "1977-01-01T00:00:00.000",
        "reclat": 33.83333,
        "reclong": 115.83333,
        "geolocation": {
            "latitude": 33.83333,
            "longitude": 115.83333
        },
        "subclasses": {
            "class1": [
                "Chondrite"
            ],
            "class2": [
                "Ordinary"
            ],
            "class3": [
                "LL"
            ]
        }
    },
    {
        "name": "Bocas",
        "id": 5093,
        "nametype": "Valid",
        "recclass": "L6",
        "mass": 56.0,
        "fall": "Fell",
        "year": "1804-01-01T00:00:00.000",
        "reclat": 23.0,
        "reclong": -102.0,
        "geolocation": {
            "latitude": 23.0,
            "longitude": -102.0
        },
        "subclasses": {
            "class1": [
                "Chondrite"
            ],
            "class2": [
                "Ordinary"
            ],
            "class3": [
                "L"
            ]
        }
    },
    {
        "name": "Bogou",
        "id": 5097,
        "nametype": "Valid",
        "recclass": "Iron, IAB-MG",
        "mass": 8800.0,
        "fall": "Fell",
        "year": "1962-01-01T00:00:00.000",
        "reclat": 12.5,
        "reclong": 0.7,
        "geolocation": {
            "latitude": 12.5,
            "longitude": 0.7
        },
        "subclasses": {
            "class1": [
                "Iron"
            ],
            "class2": [
                "Iron IAB"
            ],
            "class3": null
        }
    },
    {
        "name": "Boguslavka",
        "id": 5098,
        "nametype": "Valid",
        "recclass": "Iron, IIAB",
        "mass": 256000.0,
        "fall": "Fell",
        "year": "1916-01-01T00:00:00.000",
        "reclat": 44.55,
        "reclong": 131.63333,
        "geolocation": {
            "latitude": 44.55,
            "longitude": 131.63333
        },
        "subclasses": {
            "class1": [
                "Iron"
            ],
            "class2": [
                "Iron IIAB"
            ],
            "class3": null
        }
    },
    {
        "name": "Borgo San Donino",
        "id": 5110,
        "nametype": "Valid",
        "recclass": "LL6",
        "mass": 1676.0,
        "fall": "Fell",
        "year": "1808-01-01T00:00:00.000",
        "reclat": 44.86667,
        "reclong": 10.05,
        "geolocation": {
            "latitude": 44.86667,
            "longitude": 10.05
        },
        "subclasses": {
            "class1": [
                "Chondrite"
            ],
            "class2": [
                "Ordinary"
            ],
            "class3": [
                "LL"
            ]
        }
    },
    {
        "name": "Bori",
        "id": 5111,
        "nametype": "Valid",
        "recclass": "L6",
        "mass": 8600.0,
        "fall": "Fell",
        "year": "1894-01-01T00:00:00.000",
        "reclat": 21.95,
        "reclong": 78.03333,
        "geolocation": {
            "latitude": 21.95,
            "longitude": 78.03333
        },
        "subclasses": {
            "class1": [
                "Chondrite"
            ],
            "class2": [
                "Ordinary"
            ],
            "class3": [
                "L"
            ]
        }
    },
    {
        "name": "Boriskino",
        "id": 5112,
        "nametype": "Valid",
        "recclass": "CM2",
        "mass": 1342.0,
        "fall": "Fell",
        "year": "1930-01-01T00:00:00.000",
        "reclat": 54.23333,
        "reclong": 52.48333,
        "geolocation": {
            "latitude": 54.23333,
            "longitude": 52.48333
        },
        "subclasses": {
            "class1": [
                "Chondrite"
            ],
            "class2": [
                "Carbonacous"
            ],
            "class3": [
                "CM"
            ]
        }
    },
    {
        "name": "Borkut",
        "id": 5113,
        "nametype": "Valid",
        "recclass": "L5",
        "mass": 7000.0,
        "fall": "Fell",
        "year": "1852-01-01T00:00:00.000",
        "reclat": 48.15,
        "reclong": 24.28333,
        "geolocation": {
            "latitude": 48.15,
            "longitude": 24.28333
        },
        "subclasses": {
            "class1": [
                "Chondrite"
            ],
            "class2": [
                "Ordinary"
            ],
            "class3": [
                "L"
            ]
        }
    },
    {
        "name": "Borodino",
        "id": 5114,
        "nametype": "Valid",
        "recclass": "H5",
        "mass": 500.0,
        "fall": "Fell",
        "year": "1812-01-01T00:00:00.000",
        "reclat": 55.46667,
        "reclong": 35.86667,
        "geolocation": {
            "latitude": 55.46667,
            "longitude": 35.86667
        },
        "subclasses": {
            "class1": [
                "Chondrite"
            ],
            "class2": [
                "Ordinary"
            ],
            "class3": [
                "H"
            ]
        }
    },
    {
        "name": "Botschetschki",
        "id": 5117,
        "nametype": "Valid",
        "recclass": "L4",
        "mass": 614.0,
        "fall": "Fell",
        "year": "1823-01-01T00:00:00.000",
        "reclat": 51.33333,
        "reclong": 33.88333,
        "geolocation": {
            "latitude": 51.33333,
            "longitude": 33.88333
        },
        "subclasses": {
            "class1": [
                "Chondrite"
            ],
            "class2": [
                "Ordinary"
            ],
            "class3": [
                "L"
            ]
        }
    },
    {
        "name": "Boumdeid (2003)",
        "id": 57168,
        "nametype": "Valid",
        "recclass": "L6",
        "mass": 190.0,
        "fall": "Fell",
        "year": "2003-01-01T00:00:00.000",
        "reclat": 17.71067,
        "reclong": -11.3715,
        "geolocation": {
            "latitude": 17.71067,
            "longitude": -11.3715
        },
        "subclasses": {
            "class1": [
                "Chondrite"
            ],
            "class2": [
                "Ordinary"
            ],
            "class3": [
                "L"
            ]
        }
    },
    {
        "name": "Boumdeid (2011)",
        "id": 57167,
        "nametype": "Valid",
        "recclass": "L6",
        "mass": 3599.0,
        "fall": "Fell",
        "year": "2011-01-01T00:00:00.000",
        "reclat": 17.17493,
        "reclong": -11.34133,
        "geolocation": {
            "latitude": 17.17493,
            "longitude": -11.34133
        },
        "subclasses": {
            "class1": [
                "Chondrite"
            ],
            "class2": [
                "Ordinary"
            ],
            "class3": [
                "L"
            ]
        }
    },
    {
        "name": "Bovedy",
        "id": 5121,
        "nametype": "Valid",
        "recclass": "L3",
        "mass": 5460.0,
        "fall": "Fell",
        "year": "1969-01-01T00:00:00.000",
        "reclat": 54.56667,
        "reclong": -6.33333,
        "geolocation": {
            "latitude": 54.56667,
            "longitude": -6.33333
        },
        "subclasses": {
            "class1": [
                "Chondrite"
            ],
            "class2": [
                "Ordinary"
            ],
            "class3": [
                "L"
            ]
        }
    },
    {
        "name": "Bradford Woods",
        "id": 5128,
        "nametype": "Valid",
        "recclass": "L",
        "mass": 762.0,
        "fall": "Fell",
        "year": "1886-01-01T00:00:00.000",
        "reclat": 40.5,
        "reclong": -80.08333,
        "geolocation": {
            "latitude": 40.5,
            "longitude": -80.08333
        },
        ":@computed_region_cbhk_fwbd": "48",
        ":@computed_region_nnqa_25f4": "2455",
        "subclasses": {
            "class1": [
                "Chondrite"
            ],
            "class2": [
                "Ordinary"
            ],
            "class3": [
                "L"
            ]
        }
    },
    {
        "name": "Braunau",
        "id": 5133,
        "nametype": "Valid",
        "recclass": "Iron, IIAB",
        "mass": 39000.0,
        "fall": "Fell",
        "year": "1847-01-01T00:00:00.000",
        "reclat": 50.6,
        "reclong": 16.3,
        "geolocation": {
            "latitude": 50.6,
            "longitude": 16.3
        },
        "subclasses": {
            "class1": [
                "Iron"
            ],
            "class2": [
                "Iron IIAB"
            ],
            "class3": null
        }
    },
    {
        "name": "Breitscheid",
        "id": 5134,
        "nametype": "Valid",
        "recclass": "H5",
        "mass": 1500.0,
        "fall": "Fell",
        "year": "1956-01-01T00:00:00.000",
        "reclat": 50.66694,
        "reclong": 8.18361,
        "geolocation": {
            "latitude": 50.66694,
            "longitude": 8.18361
        },
        "subclasses": {
            "class1": [
                "Chondrite"
            ],
            "class2": [
                "Ordinary"
            ],
            "class3": [
                "H"
            ]
        }
    },
    {
        "name": "Bremerv\u00f6rde",
        "id": 5135,
        "nametype": "Valid",
        "recclass": "H/L3.9",
        "mass": 7250.0,
        "fall": "Fell",
        "year": "1855-01-01T00:00:00.000",
        "reclat": 53.4,
        "reclong": 9.1,
        "geolocation": {
            "latitude": 53.4,
            "longitude": 9.1
        },
        "subclasses": {
            "class1": [
                "Chondrite"
            ],
            "class2": [
                "Ordinary"
            ],
            "class3": [
                "H",
                "L"
            ]
        }
    },
    {
        "name": "Brient",
        "id": 5140,
        "nametype": "Valid",
        "recclass": "Eucrite-pmict",
        "mass": 219.0,
        "fall": "Fell",
        "year": "1933-01-01T00:00:00.000",
        "reclat": 52.13333,
        "reclong": 59.31667,
        "geolocation": {
            "latitude": 52.13333,
            "longitude": 59.31667
        },
        "subclasses": {
            "class1": [
                "Achondrite"
            ],
            "class2": [
                "HED"
            ],
            "class3": [
                "Eucrite"
            ]
        }
    },
    {
        "name": "Bruderheim",
        "id": 5156,
        "nametype": "Valid",
        "recclass": "L6",
        "mass": 303000.0,
        "fall": "Fell",
        "year": "1960-01-01T00:00:00.000",
        "reclat": 53.9,
        "reclong": -112.88333,
        "geolocation": {
            "latitude": 53.9,
            "longitude": -112.88333
        },
        "subclasses": {
            "class1": [
                "Chondrite"
            ],
            "class2": [
                "Ordinary"
            ],
            "class3": [
                "L"
            ]
        }
    },
    {
        "name": "Bukhara",
        "id": 30448,
        "nametype": "Valid",
        "recclass": "CV3",
        "mass": 5300.0,
        "fall": "Fell",
        "year": "2001-01-01T00:00:00.000",
        "reclat": 39.77978,
        "reclong": 64.60035,
        "geolocation": {
            "latitude": 39.77978,
            "longitude": 64.60035
        },
        "subclasses": {
            "class1": [
                "Chondrite"
            ],
            "class2": [
                "Carbonacous"
            ],
            "class3": [
                "CV"
            ]
        }
    },
    {
        "name": "Bulls Run",
        "id": 5163,
        "nametype": "Valid",
        "recclass": "Iron?",
        "mass": 2250.0,
        "fall": "Fell",
        "year": "1964-01-01T00:00:00.000",
        "subclasses": {
            "class1": [
                "Iron"
            ],
            "class2": [
                "Other Iron"
            ],
            "class3": null
        }
    },
    {
        "name": "Bunburra Rockhole",
        "id": 48653,
        "nametype": "Valid",
        "recclass": "Eucrite",
        "mass": 324.0,
        "fall": "Fell",
        "year": "2007-01-01T00:00:00.000",
        "reclat": -31.35,
        "reclong": 129.19,
        "geolocation": {
            "latitude": -31.35,
            "longitude": 129.19
        },
        "subclasses": {
            "class1": [
                "Achondrite"
            ],
            "class2": [
                "HED"
            ],
            "class3": [
                "Eucrite"
            ]
        }
    },
    {
        "name": "Bununu",
        "id": 5165,
        "nametype": "Valid",
        "recclass": "Howardite",
        "mass": 357.0,
        "fall": "Fell",
        "year": "1942-01-01T00:00:00.000",
        "reclat": 10.01667,
        "reclong": 9.58333,
        "geolocation": {
            "latitude": 10.01667,
            "longitude": 9.58333
        },
        "subclasses": {
            "class1": [
                "Achondrite"
            ],
            "class2": [
                "HED"
            ],
            "class3": [
                "Howardite"
            ]
        }
    },
    {
        "name": "Bur-Gheluai",
        "id": 5169,
        "nametype": "Valid",
        "recclass": "H5",
        "mass": 120000.0,
        "fall": "Fell",
        "year": "1919-01-01T00:00:00.000",
        "reclat": 5.0,
        "reclong": 48.0,
        "geolocation": {
            "latitude": 5.0,
            "longitude": 48.0
        },
        "subclasses": {
            "class1": [
                "Chondrite"
            ],
            "class2": [
                "Ordinary"
            ],
            "class3": [
                "H"
            ]
        }
    },
    {
        "name": "Burnwell",
        "id": 5175,
        "nametype": "Valid",
        "recclass": "H4-an",
        "mass": 1504.0,
        "fall": "Fell",
        "year": "1990-01-01T00:00:00.000",
        "reclat": 37.62194,
        "reclong": -82.23722,
        "geolocation": {
            "latitude": 37.62194,
            "longitude": -82.23722
        },
        ":@computed_region_cbhk_fwbd": "36",
        ":@computed_region_nnqa_25f4": "256",
        "subclasses": {
            "class1": [
                "Chondrite"
            ],
            "class2": [
                "Ordinary"
            ],
            "class3": [
                "H"
            ]
        }
    },
    {
        "name": "Bursa",
        "id": 5177,
        "nametype": "Valid",
        "recclass": "L6",
        "mass": 25000.0,
        "fall": "Fell",
        "year": "1946-01-01T00:00:00.000",
        "reclat": 40.2,
        "reclong": 29.23333,
        "geolocation": {
            "latitude": 40.2,
            "longitude": 29.23333
        },
        "subclasses": {
            "class1": [
                "Chondrite"
            ],
            "class2": [
                "Ordinary"
            ],
            "class3": [
                "L"
            ]
        }
    },
    {
        "name": "Buschhof",
        "id": 5178,
        "nametype": "Valid",
        "recclass": "L6",
        "mass": 5000.0,
        "fall": "Fell",
        "year": "1863-01-01T00:00:00.000",
        "reclat": 46.45,
        "reclong": 25.78333,
        "geolocation": {
            "latitude": 46.45,
            "longitude": 25.78333
        },
        "subclasses": {
            "class1": [
                "Chondrite"
            ],
            "class2": [
                "Ordinary"
            ],
            "class3": [
                "L"
            ]
        }
    },
    {
        "name": "Bustee",
        "id": 5181,
        "nametype": "Valid",
        "recclass": "Aubrite",
        "mass": 1500.0,
        "fall": "Fell",
        "year": "1852-01-01T00:00:00.000",
        "reclat": 26.78333,
        "reclong": 82.83333,
        "geolocation": {
            "latitude": 26.78333,
            "longitude": 82.83333
        },
        "subclasses": {
            "class1": [
                "Achondrite"
            ],
            "class2": [
                "Aubrite"
            ],
            "class3": null
        }
    },
    {
        "name": "Butsura",
        "id": 5183,
        "nametype": "Valid",
        "recclass": "H6",
        "mass": 29000.0,
        "fall": "Fell",
        "year": "1861-01-01T00:00:00.000",
        "reclat": 27.08333,
        "reclong": 84.08333,
        "geolocation": {
            "latitude": 27.08333,
            "longitude": 84.08333
        },
        "subclasses": {
            "class1": [
                "Chondrite"
            ],
            "class2": [
                "Ordinary"
            ],
            "class3": [
                "H"
            ]
        }
    },
    {
        "name": "Buzzard Coulee",
        "id": 48654,
        "nametype": "Valid",
        "recclass": "H4",
        "mass": 41000.0,
        "fall": "Fell",
        "year": "2008-01-01T00:00:00.000",
        "reclat": 52.996,
        "reclong": -109.84817,
        "geolocation": {
            "latitude": 52.996,
            "longitude": -109.84817
        },
        "subclasses": {
            "class1": [
                "Chondrite"
            ],
            "class2": [
                "Ordinary"
            ],
            "class3": [
                "H"
            ]
        }
    },
    {
        "name": "Cabezo de Mayo",
        "id": 5185,
        "nametype": "Valid",
        "recclass": "L/LL6",
        "mass": 25000.0,
        "fall": "Fell",
        "year": "1870-01-01T00:00:00.000",
        "reclat": 37.98333,
        "reclong": -1.16667,
        "geolocation": {
            "latitude": 37.98333,
            "longitude": -1.16667
        },
        "subclasses": {
            "class1": [
                "Chondrite"
            ],
            "class2": [
                "Ordinary"
            ],
            "class3": [
                "L",
                "LL"
            ]
        }
    },
    {
        "name": "Cabin Creek",
        "id": 5186,
        "nametype": "Valid",
        "recclass": "Iron, IIIAB",
        "mass": 48500.0,
        "fall": "Fell",
        "year": "1886-01-01T00:00:00.000",
        "reclat": 35.5,
        "reclong": -93.5,
        "geolocation": {
            "latitude": 35.5,
            "longitude": -93.5
        },
        ":@computed_region_cbhk_fwbd": "15",
        ":@computed_region_nnqa_25f4": "1029",
        "subclasses": {
            "class1": [
                "Iron"
            ],
            "class2": [
                "Iron IIIAB"
            ],
            "class3": null
        }
    },
    {
        "name": "Cacak",
        "id": 5187,
        "nametype": "Valid",
        "recclass": "OC",
        "mass": 212.0,
        "fall": "Fell",
        "year": "1919-01-01T00:00:00.000",
        "reclat": 43.83889,
        "reclong": 20.33333,
        "geolocation": {
            "latitude": 43.83889,
            "longitude": 20.33333
        },
        "subclasses": {
            "class1": [
                "Chondrite"
            ],
            "class2": [
                "Ordinary"
            ],
            "class3": [
                "Other Ordinary Chondrite"
            ]
        }
    },
    {
        "name": "Cali",
        "id": 45976,
        "nametype": "Valid",
        "recclass": "H/L4",
        "mass": 478.0,
        "fall": "Fell",
        "year": "2007-01-01T00:00:00.000",
        "reclat": 3.405,
        "reclong": -76.51,
        "geolocation": {
            "latitude": 3.405,
            "longitude": -76.51
        },
        "subclasses": {
            "class1": [
                "Chondrite"
            ],
            "class2": [
                "Ordinary"
            ],
            "class3": [
                "H",
                "L"
            ]
        }
    },
    {
        "name": "Calivo",
        "id": 5200,
        "nametype": "Valid",
        "recclass": "Stone-uncl",
        "mass": 2400.0,
        "fall": "Fell",
        "year": "1916-01-01T00:00:00.000",
        "reclat": 11.75,
        "reclong": 122.33333,
        "geolocation": {
            "latitude": 11.75,
            "longitude": 122.33333
        },
        "subclasses": {
            "class1": [
                "Stony-iron"
            ],
            "class2": [
                "Other Stony-iron"
            ],
            "class3": null
        }
    },
    {
        "name": "Campos Sales",
        "id": 5249,
        "nametype": "Valid",
        "recclass": "L5",
        "mass": 23680.0,
        "fall": "Fell",
        "year": "1991-01-01T00:00:00.000",
        "reclat": -7.03333,
        "reclong": -40.16667,
        "geolocation": {
            "latitude": -7.03333,
            "longitude": -40.16667
        },
        "subclasses": {
            "class1": [
                "Chondrite"
            ],
            "class2": [
                "Ordinary"
            ],
            "class3": [
                "L"
            ]
        }
    },
    {
        "name": "\u00c7anakkale",
        "id": 5250,
        "nametype": "Valid",
        "recclass": "L6",
        "mass": 4000.0,
        "fall": "Fell",
        "year": "1964-01-01T00:00:00.000",
        "reclat": 39.8,
        "reclong": 26.6,
        "geolocation": {
            "latitude": 39.8,
            "longitude": 26.6
        },
        "subclasses": {
            "class1": [
                "Chondrite"
            ],
            "class2": [
                "Ordinary"
            ],
            "class3": [
                "L"
            ]
        }
    },
    {
        "name": "Ca\u00f1ellas",
        "id": 5251,
        "nametype": "Valid",
        "recclass": "H4",
        "mass": 945.0,
        "fall": "Fell",
        "year": "1861-01-01T00:00:00.000",
        "reclat": 41.25,
        "reclong": 1.66667,
        "geolocation": {
            "latitude": 41.25,
            "longitude": 1.66667
        },
        "subclasses": {
            "class1": [
                "Chondrite"
            ],
            "class2": [
                "Ordinary"
            ],
            "class3": [
                "H"
            ]
        }
    },
    {
        "name": "Cangas de Onis",
        "id": 5252,
        "nametype": "Valid",
        "recclass": "H5",
        "mass": 34000.0,
        "fall": "Fell",
        "year": "1866-01-01T00:00:00.000",
        "reclat": 43.38333,
        "reclong": -5.15,
        "geolocation": {
            "latitude": 43.38333,
            "longitude": -5.15
        },
        "subclasses": {
            "class1": [
                "Chondrite"
            ],
            "class2": [
                "Ordinary"
            ],
            "class3": [
                "H"
            ]
        }
    },